{
  "phase": "Phase 1 - Database Integration",
  "status": "COMPLETED",
  "timestamp": "2025-08-13T05:06:00Z",
  "database": {
    "connection": "postgresql://postgres:zeldaMaster@localhost/zelda",
    "status": "Connected and operational",
    "tables": {
      "brfs": {
        "description": "Building associations (BRFs)",
        "key_columns": ["brf_id", "brf_name", "org_number"],
        "record_count": 12
      },
      "residences": {
        "description": "Building locations and addresses",
        "key_columns": ["residence_id", "brf_id", "latitude", "longitude", "formatted_address", "city_appended"],
        "record_count": 12,
        "indexes": ["city", "address", "coordinates"]
      },
      "economy_data": {
        "description": "Financial and energy consumption data",
        "key_columns": ["economy_id", "brf_id", "year", "energy_costs", "water_costs", "heating_costs", "monthly_fee"],
        "record_count": 36,
        "years_available": [2022, 2023, 2024]
      },
      "documents": {
        "description": "Document references (annual reports, energy declarations)",
        "key_columns": ["document_id", "brf_id", "document_type", "year", "file_path"],
        "record_count": 36,
        "document_types": ["annual_report", "energy_declaration"]
      }
    }
  },
  "hammarby_sjostad_data": {
    "total_buildings": 12,
    "coordinate_bounds": {
      "min_lat": 59.3029,
      "max_lat": 59.3061,
      "min_lon": 18.1012,
      "max_lon": 18.1068
    },
    "buildings": [
      {"brf_id": 1, "name": "BRF Sjöstaden 1", "lat": 59.3045, "lon": 18.104},
      {"brf_id": 2, "name": "BRF Hammarby Kaj", "lat": 59.3052, "lon": 18.1025},
      {"brf_id": 3, "name": "BRF Sjögläntan", "lat": 59.3038, "lon": 18.1055},
      {"brf_id": 4, "name": "BRF Sickla Strand", "lat": 59.3061, "lon": 18.1012},
      {"brf_id": 5, "name": "BRF Hammarby Allé", "lat": 59.3029, "lon": 18.1068},
      {"brf_id": 6, "name": "BRF Lugnets Strand", "lat": 59.3055, "lon": 18.1033},
      {"brf_id": 7, "name": "BRF Sjöstadsparterren", "lat": 59.3042, "lon": 18.1048},
      {"brf_id": 8, "name": "BRF Hammarby Terrass", "lat": 59.3048, "lon": 18.1022},
      {"brf_id": 9, "name": "BRF Sjöstadshöjden", "lat": 59.3035, "lon": 18.1062},
      {"brf_id": 10, "name": "BRF Hammarby Port", "lat": 59.3058, "lon": 18.1018},
      {"brf_id": 11, "name": "BRF Sjöstadskajen", "lat": 59.304, "lon": 18.1045},
      {"brf_id": 12, "name": "BRF Hammarby Fabrik", "lat": 59.305, "lon": 18.103}
    ],
    "statistics_2023": {
      "avg_monthly_fee": 4458.80,
      "avg_energy_cost": 206070.55,
      "avg_water_cost": 116191.34,
      "avg_heating_cost": 306246.61,
      "total_energy_cost": 2472846.59,
      "total_water_cost": 1394296.05,
      "total_heating_cost": 3674959.37
    }
  },
  "integration_modules": {
    "database_integration.py": {
      "description": "Core database integration with connection pooling",
      "features": [
        "ThreadedConnectionPool for efficient connection management",
        "Spatial queries with polygon selection support",
        "Unified data retrieval combining buildings, economy, and documents",
        "Point-in-polygon algorithm for geographic filtering",
        "Aggregated statistics calculation"
      ],
      "main_class": "DatabaseIntegration",
      "key_methods": [
        "get_hammarby_buildings()",
        "get_buildings_in_polygon()",
        "get_economy_data()",
        "get_documents()",
        "get_unified_building_data()"
      ]
    },
    "api_endpoints.py": {
      "description": "RESTful API for database access",
      "base_url": "http://localhost:5000",
      "endpoints": [
        {
          "path": "/api/buildings/hammarby",
          "method": "GET",
          "description": "Get all Hammarby Sjöstad buildings with unified data"
        },
        {
          "path": "/api/buildings/polygon",
          "method": "POST",
          "description": "Get buildings within polygon coordinates"
        },
        {
          "path": "/api/buildings/{brf_id}",
          "method": "GET",
          "description": "Get detailed information for specific building"
        },
        {
          "path": "/api/economy/stats",
          "method": "GET",
          "description": "Get aggregated economy statistics"
        },
        {
          "path": "/api/documents/{brf_id}",
          "method": "GET",
          "description": "Get all documents for specific building"
        }
      ]
    }
  },
  "output_files": {
    "hammarby_building_data.json": {
      "description": "Complete JSON dataset for all Hammarby buildings",
      "structure": {
        "metadata": "Timestamp and area information",
        "statistics": "Aggregated cost statistics",
        "buildings": "Array of building objects with location, economy, and document data"
      }
    }
  },
  "workflow_enabled": {
    "polygon_selection": "Select buildings by drawing polygon on map",
    "building_identification": "Map coordinates to building IDs",
    "document_retrieval": "Access annual reports and energy declarations",
    "data_aggregation": "Calculate statistics across selected buildings",
    "api_access": "RESTful endpoints for agent integration"
  },
  "next_steps": [
    "Integrate with frontend map interface for polygon drawing",
    "Connect document retrieval to PDF processing pipeline",
    "Implement real-time data updates via WebSocket",
    "Add authentication and rate limiting to API",
    "Set up monitoring and logging infrastructure"
  ]
}